[
  {
    "id": "cinemark-salvador-shopping",
    "name": "Cinemark Salvador Shopping",
    "categories": ["cinema", "entretenimento", "lazer"],
    "source": "local",
    "location": {
      "lat": 0,
      "lon": 0,
      "city": "Salvador",
      "state": "BA",
      "country": "Brasil",
      "address": "Salvador Shopping, Salvador - BA, Brasil"
    },
    "description": "O Cinemark Salvador Shopping é um dos principais complexos de cinema da capital baiana, oferecendo salas modernas, tecnologia de projeção digital, opções em 3D e salas VIP. Localizado em um dos shoppings mais movimentados da cidade, proporciona conforto, variedade de filmes e fácil acesso a serviços de alimentação e lazer.",
    "ai_generated_description": true,
    "medias": [],
    "rating": 4,
    "price_level": "Pago",
    "tags": ["Cinema", "Filmes", "Lazer"],
    "openingHours": "Conforme programação",
    "contact": {},
    "wikipediaUrl": "",
    "googleMapsUrl": ""
  },
  {
    "id": "uci-orient-paralela",
    "name": "UCI Orient Paralela",
    "categories": ["cinema", "entretenimento", "lazer"],
    "source": "local",
    "location": {
      "lat": 0,
      "lon": 0,
      "city": "Salvador",
      "state": "BA",
      "country": "Brasil",
      "address": "Shopping Paralela, Salvador - BA, Brasil"
    },
    "description": "O UCI Orient Paralela é conhecido por suas salas confortáveis e tecnologia de som e imagem de alta qualidade. O cinema oferece programação variada, incluindo grandes lançamentos, filmes nacionais e internacionais, sendo uma opção popular para lazer na região da Avenida Paralela.",
    "ai_generated_description": true,
    "medias": [],
    "rating": 4,
    "price_level": "Pago",
    "tags": ["Cinema", "Shopping", "Filmes"],
    "openingHours": "Conforme programação",
    "contact": {},
    "wikipediaUrl": "",
    "googleMapsUrl": ""
  },
  {
    "id": "cinemark-rio-vermelho",
    "name": "Cinemark Salvador Norte Shopping",
    "categories": ["cinema", "entretenimento", "lazer"],
    "source": "local",
    "location": {
      "lat": 0,
      "lon": 0,
      "city": "Salvador",
      "state": "BA",
      "country": "Brasil",
      "address": "Salvador Norte Shopping, Salvador - BA, Brasil"
    },
    "description": "O Cinemark Salvador Norte Shopping oferece uma experiência moderna de cinema, com salas digitais, poltronas confortáveis e programação atualizada. É uma opção prática para quem busca lazer na região norte da cidade.",
    "ai_generated_description": true,
    "medias": [],
    "rating": 4,
    "price_level": "Pago",
    "tags": ["Cinema", "Lazer", "Filmes"],
    "openingHours": "Conforme programação",
    "contact": {},
    "wikipediaUrl": "",
    "googleMapsUrl": ""
  },
  {
    "id": "cinemark-recife-shopping",
    "name": "Cinemark Recife Shopping",
    "categories": ["cinema", "entretenimento", "lazer"],
    "source": "local",
    "location": {
      "lat": 0,
      "lon": 0,
      "city": "Recife",
      "state": "PE",
      "country": "Brasil",
      "address": "Recife Shopping, Recife - PE, Brasil"
    },
    "description": "Localizado em um dos maiores shoppings do Nordeste, o Cinemark Recife Shopping oferece salas amplas, tecnologia avançada de projeção e uma programação diversificada, sendo um dos cinemas mais frequentados da capital pernambucana.",
    "ai_generated_description": true,
    "medias": [],
    "rating": 4,
    "price_level": "Pago",
    "tags": ["Cinema", "Recife", "Entretenimento"],
    "openingHours": "Conforme programação",
    "contact": {},
    "wikipediaUrl": "",
    "googleMapsUrl": ""
  },
  {
    "id": "uci-kinoplex-recife",
    "name": "UCI Kinoplex Shopping Recife",
    "categories": ["cinema", "entretenimento", "lazer"],
    "source": "local",
    "location": {
      "lat": 0,
      "lon": 0,
      "city": "Recife",
      "state": "PE",
      "country": "Brasil",
      "address": "Shopping Recife, Recife - PE, Brasil"
    },
    "description": "O UCI Kinoplex Shopping Recife combina conforto e tecnologia, com salas modernas e opções de filmes para todos os públicos. É uma referência em lazer cinematográfico na cidade.",
    "ai_generated_description": true,
    "medias": [],
    "rating": 4,
    "price_level": "Pago",
    "tags": ["Cinema", "Filmes", "Shopping"],
    "openingHours": "Conforme programação",
    "contact": {},
    "wikipediaUrl": "",
    "googleMapsUrl": ""
  },
  {
    "id": "cinemark-riomar-recife",
    "name": "Cinemark RioMar Recife",
    "categories": ["cinema", "entretenimento", "lazer"],
    "source": "local",
    "location": {
      "lat": 0,
      "lon": 0,
      "city": "Recife",
      "state": "PE",
      "country": "Brasil",
      "address": "Shopping RioMar Recife, Recife - PE, Brasil"
    },
    "description": "O Cinemark RioMar Recife se destaca pelas salas premium, excelente qualidade de som e imagem e localização privilegiada. É ideal para quem busca uma experiência de cinema mais sofisticada.",
    "ai_generated_description": true,
    "medias": [],
    "rating": 5,
    "price_level": "Pago",
    "tags": ["Cinema", "Premium", "Lazer"],
    "openingHours": "Conforme programação",
    "contact": {},
    "wikipediaUrl": "",
    "googleMapsUrl": ""
  },
  {
    "id": "cinemark-fortaleza-iguatemi",
    "name": "Cinemark Iguatemi Fortaleza",
    "categories": ["cinema", "entretenimento", "lazer"],
    "source": "local",
    "location": {
      "lat": 0,
      "lon": 0,
      "city": "Fortaleza",
      "state": "CE",
      "country": "Brasil",
      "address": "Shopping Iguatemi Fortaleza, Fortaleza - CE, Brasil"
    },
    "description": "O Cinemark Iguatemi Fortaleza oferece salas modernas, tecnologia 3D e programação variada. Localizado em um dos shoppings mais tradicionais da cidade, é uma das principais opções de cinema da capital cearense.",
    "ai_generated_description": true,
    "medias": [],
    "rating": 4,
    "price_level": "Pago",
    "tags": ["Cinema", "Fortaleza", "Filmes"],
    "openingHours": "Conforme programação",
    "contact": {},
    "wikipediaUrl": "",
    "googleMapsUrl": ""
  },
  {
    "id": "uci-kinoplex-fortaleza",
    "name": "UCI Kinoplex RioMar Fortaleza",
    "categories": ["cinema", "entretenimento", "lazer"],
    "source": "local",
    "location": {
      "lat": 0,
      "lon": 0,
      "city": "Fortaleza",
      "state": "CE",
      "country": "Brasil",
      "address": "Shopping RioMar Fortaleza, Fortaleza - CE, Brasil"
    },
    "description": "O UCI Kinoplex RioMar Fortaleza é reconhecido pela qualidade das salas e pela programação atualizada. Oferece conforto e excelente experiência audiovisual para o público local e turistas.",
    "ai_generated_description": true,
    "medias": [],
    "rating": 4,
    "price_level": "Pago",
    "tags": ["Cinema", "Lazer", "Shopping"],
    "openingHours": "Conforme programação",
    "contact": {},
    "wikipediaUrl": "",
    "googleMapsUrl": ""
  },
  {
    "id": "cinemark-natal-midway",
    "name": "Cinemark Midway Mall",
    "categories": ["cinema", "entretenimento", "lazer"],
    "source": "local",
    "location": {
      "lat": 0,
      "lon": 0,
      "city": "Natal",
      "state": "RN",
      "country": "Brasil",
      "address": "Midway Mall, Natal - RN, Brasil"
    },
    "description": "O Cinemark Midway Mall é um dos cinemas mais conhecidos de Natal, oferecendo salas confortáveis, tecnologia moderna e fácil acesso no maior shopping da cidade.",
    "ai_generated_description": true,
    "medias": [],
    "rating": 4,
    "price_level": "Pago",
    "tags": ["Cinema", "Natal", "Entretenimento"],
    "openingHours": "Conforme programação",
    "contact": {},
    "wikipediaUrl": "",
    "googleMapsUrl": ""
  },
  {
    "id": "cinemark-aracaju-riomar",
    "name": "Cinemark RioMar Aracaju",
    "categories": ["cinema", "entretenimento", "lazer"],
    "source": "local",
    "location": {
      "lat": 0,
      "lon": 0,
      "city": "Aracaju",
      "state": "SE",
      "country": "Brasil",
      "address": "Shopping RioMar Aracaju, Aracaju - SE, Brasil"
    },
    "description": "O Cinemark RioMar Aracaju oferece uma experiência completa de cinema, com salas modernas, ótima acústica e programação diversificada para todos os públicos.",
    "ai_generated_description": true,
    "medias": [],
    "rating": 4,
    "price_level": "Pago",
    "tags": ["Cinema", "Aracaju", "Filmes"],
    "openingHours": "Conforme programação",
    "contact": {},
    "wikipediaUrl": "",
    "googleMapsUrl": ""
  }
]
